OID_,STATION_NUMBER,STATION_NAME,PROV_TERR_STATE_LOC,REGIONAL_OFFICE_ID,HYD_STATUS,SED_STATUS,LATITUDE,LONGITUDE,DRAINAGE_AREA_GROSS,DRAINAGE_AREA_EFFECT,RHBN,REAL_TIME,CONTRIBUTOR_ID,OPERATOR_ID,DATUM_ID
223,05MH001,ASSINIBOINE RIVER AT BRANDON,MB,4,ACTIVE,NA,49.861438751220703,-99.961578369140625,93800,NA,FALSE,TRUE,647,647,200
224,05MH002,CYPRESS RIVER AT CYPRESS RIVER,MB,4,DISCONTINUED,NA,49.549999237060547,-99.074996948242202,377,NA,FALSE,FALSE,NA,NA,10
225,05MH004,CYPRESS RIVER NEAR CYPRESS RIVER,MB,4,DISCONTINUED,NA,49.591941833496094,-99.033332824707045,632,NA,FALSE,FALSE,390,647,10
227,05MH006,LITTLE SOURIS RIVER NEAR BRANDON,MB,4,ACTIVE,NA,49.732170104980469,-99.848861694335938,644,NA,FALSE,TRUE,647,647,10
228,05MH007,EPINETTE CREEK NEAR CARBERRY,MB,4,ACTIVE,NA,49.741828918457031,-99.325119018554673,382,NA,FALSE,TRUE,647,647,10
229,05MH008,CYPRESS RIVER NEAR BRUXELLES,MB,4,ACTIVE,NA,49.446388244628906,-98.907997131347656,276,NA,FALSE,TRUE,647,647,10
230,05MH011,WILLOW CREEK NEAR CHATER,MB,4,DISCONTINUED,NA,49.858890533447273,-99.826110839843764,666,NA,FALSE,FALSE,390,647,10
231,05MH013,ASSINIBOINE RIVER NEAR BRANDON,MB,4,DISCONTINUED,DISCONTINUED,49.870578765869141,-100.100028991699219,93700,NA,FALSE,FALSE,647,647,129
